1743734682.692766 - 1.34,4*01
1743734683.6939805 - $GNGSA,A,3,,,,,,,,,,
1743734683.695771 - $GNRMC,024443.00,A,3741.28019,N,09720.38756,W,0.022,,040425,,,D,V*01
1743734683.6960158 - $GNVTG,,T,,M,0.022,N,0.040,K,D*3C
1743734683.6965616 - $GNGGA,024443.00,3741.28019,N,09720.38756,W,2,12,0.66,433.7,M,-26.4,M,,0131*78
1743734683.6969867 - $GNGSA,A,3,15,27,44,10,46,23,18,32,24,,,,1.50,0.66,1.34,1*0E
1743734683.6973422 - $GNGSA,A,3,86,65,72,88,,,,,,,,,1.50,0.66,1.34,2*08
1743734683.6976976 - $GNGSA,A,3,29,33,26,07,,,,,,,,,1.50,0.66,1.34,3*09
1743734683.6980793 - $GNGSA,A,3,34,12,21,11,22,,,,,,,,1.50,0.66,1.34,4*01
1743734683.6983817 - $GNGSA,A,3,,,,,,,,,,,,,1.50,0.66,1.34,5*07
1743734683.698874 - $GPGSV,3,1,10,10,44,296,36,15,32,049,25,18,64,133,16,23,65,014,42,1*6D
1743734683.6993632 - $GPGSV,3,2,10,24,39,098,36,27,29,291,30,29,02,175,25,32,29,223,31,1*6D
1743734683.6996782 - $GPGSV,3,3,10,44,42,210,37,46,35,225,37,1*61
1743734683.7001681 - $GPGSV,2,1,07,10,44,296,35,15,32,049,24,18,64,133,24,23,65,014,44,6*68
1743734683.7005708 - $GPGSV,2,2,07,24,39,098,24,27,29,291,27,32,29,223,17,6*51
1743734683.7007847 - $GPGSV,1,1,01,08,08,322,,0*57
1743734683.7012753 - $GLGSV,2,1,07,65,29,249,33,71,30,036,18,72,68,331,32,73,06,071,14,1*78
1743734683.701678 - $GLGSV,2,2,07,80,02,022,14,86,41,159,35,88,25,328,20,1*4C
1743734683.702177 - $GLGSV,2,1,06,65,29,249,18,71,30,036,17,72,68,331,36,73,06,071,20,3*7E
1743734683.702493 - $GLGSV,2,2,06,86,41,159,19,88,25,328,25,3*7B
1743734683.702707 - $GLGSV,1,1,01,87,83,254,,0*4F
1743734683.7031972 - $GAGSV,1,1,04,07,42,047,32,14,32,219,25,26,57,124,30,33,67,325,37,2*7B
1743734683.7036884 - $GAGSV,2,1,07,07,42,047,37,13,07,131,09,14,32,219,30,19,31,215,19,7*77
1743734683.7040908 - $GAGSV,2,2,07,26,57,124,35,29,78,184,20,33,67,325,37,7*49
1743734683.704305 - $GAGSV,1,1,01,12,13,314,,0*42
1743734683.7047958 - $GBGSV,2,1,06,11,33,313,28,12,66,233,20,21,65,284,27,22,49,042,40,1*7F
1743734683.705111 - $GBGSV,2,2,06,34,52,288,36,35,10,161,32,1*77
1743734683.7054255 - $GBGSV,1,1,02,11,33,313,33,12,66,233,33,B*07
1743734683.7058692 - $GBGSV,2,1,06,19,01,060,,36,10,084,,43,11,321,,45,06,129,,0*7F
1743734683.7061598 - $GBGSV,2,2,06,46,00,037,,50,44,261,,0*77
1743734683.7063003 - $GQGSV,1,1,00,0*64
1743734683.7066846 - $GNGLL,3741.28019,N,09720.38756,W,024443.00,A,D*65
1743734684.7016385 - $GNRMC,024444.00,A,3741.28017,N,09720.38754,W,0.033,,040425,,,D,V*0A
1743734684.7018116 - $GNVTG,,T,,M,0.033,N,0.062,K,D*3C
1743734684.7021852 - $GNGGA,024444.00,3741.28017,N,09720.38754,W,2,12,0.64,433.7,M,-26.4,M,,0131*71
1743734684.7024548 - $GNGSA,A,3,15,27,44,10,46,23,18,32,24,,,,1.47,0.64,1.32,1*0C
1743734684.7026796 - $GNGSA,A,3,86,65,72,88,,,,,,,,,1.47,0.64,1.32,2*0A
1743734684.702933 - $GNGSA,A,3,19,29,33,26,07,,,,,,,,1.47,0.64,1.32,3*03
1743734684.7031713 - $GNGSA,A,3,34,12,21,11,22,,,,,,,,1.47,0.64,1.32,4*03
1743734684.703362 - $GNGSA,A,3,,,,,,,,,,,,,1.47,0.64,1.32,5*05
1743734684.7036722 - $GPGSV,3,1,10,10,44,296,36,15,32,049,25,18,64,133,18,23,65,014,43,1*62
1743734684.7039816 - $GPGSV,3,2,10,24,39,098,36,27,29,291,29,29,02,175,25,32,29,223,32,1*66
1743734684.704186 - $GPGSV,3,3,10,44,42,210,37,46,35,225,37,1*61
1743734684.7044983 - $GPGSV,2,1,07,10,44,296,35,15,32,049,24,18,64,133,24,23,65,014,44,6*68
1743734684.7047534 - $GPGSV,2,2,07,24,39,098,24,27,29,291,27,32,29,223,18,6*5E
1743734684.7049081 - $GPGSV,1,1,01,08,08,322,,0*57
1743734684.705219 - $GLGSV,2,1,07,65,29,249,33,71,30,036,18,72,68,331,33,73,06,071,18,1*75
1743734684.705474 - $GLGSV,2,2,07,80,02,022,14,86,41,159,36,88,25,328,20,1*4F
1743734684.7057872 - $GLGSV,2,1,06,65,29,249,19,71,30,036,17,72,68,331,35,73,06,071,20,3*7C
1743734684.706254 - $GLGSV,2,2,06,86,41,159,19,88,25,328,25,3*7B
1743734684.706396 - $GLGSV,1,1,01,87,83,254,,0*4F
1743734684.7067087 - $GAGSV,1,1,04,07,42,047,32,14,32,219,25,26,57,124,30,33,67,325,37,2*7B
1743734684.7070756 - $GAGSV,2,1,07,07,42,047,37,13,07,131,11,14,32,219,30,19,31,215,20,7*74
1743734684.7074497 - $GAGSV,2,2,07,26,57,124,35,29,78,184,20,33,67,325,37,7*49
1743734684.707595 - $GAGSV,1,1,01,12,13,314,,0*42
1743734684.7079155 - $GBGSV,2,1,06,11,33,313,28,12,66,233,21,21,65,284,27,22,49,042,40,1*7E
1743734684.7081153 - $GBGSV,2,2,06,34,52,288,36,35,10,161,32,1*77
1743734684.7083132 - $GBGSV,1,1,02,11,33,313,32,12,66,233,33,B*06
1743734684.7085874 - $GBGSV,2,1,06,19,01,060,,36,10,084,,43,11,321,,45,06,129,,0*7F
1743734684.708798 - $GBGSV,2,2,06,46,00,037,,50,44,261,,0*77
1743734684.7088864 - $GQGSV,1,1,00,0*64
1743734684.7091115 - $GNGLL,3741.28017,N,09720.38754,W,024444.00,A,D*6E
1743734685.6994877 - $GNRMC,024445.00,A,3741.28016,N,09720.38753,W,0.004,,040425,,,D,V*09
1743734685.6996593 - $GNVTG,,T,,M,0.004,N,0.008,K,D*34
1743734685.700008 - $GNGGA,024445.00,3741.28016,N,09720.38753,W,2,12,0.64,433.7,M,-26.4,M,,0131*76
1743734685.7002788 - $GNGSA,A,3,15,27,44,10,46,23,18,32,24,,,,1.47,0.64,1.32,1*0C
1743734685.7005188 - $GNGSA,A,3,86,65,72,88,,,,,,,,,1.47,0.64,1.32,2*0A
1743734685.7007425 - $GNGSA,A,3,19,33,26,07,,,,,,,,,1.47,0.64,1.32,3*08
1743734685.7009735 - $GNGSA,A,3,34,12,21,11,22,,,,,,,,1.47,0.64,1.32,4*03
1743734685.7011633 - $GNGSA,A,3,,,,,,,,,,,,,1.47,0.64,1.32,5*05
1743734685.7014723 - $GPGSV,3,1,10,10,44,296,36,15,32,049,25,18,64,133,20,23,65,014,42,1*68
1743734685.7017803 - $GPGSV,3,2,10,24,39,098,36,27,29,291,29,29,02,175,25,32,29,223,33,1*67
1743734685.7019942 - $GPGSV,3,3,10,44,42,210,37,46,35,225,37,1*61
1743734685.7023046 - $GPGSV,2,1,07,10,44,296,35,15,32,049,24,18,64,133,23,23,65,014,44,6*6F
1743734685.7025638 - $GPGSV,2,2,07,24,39,098,25,27,29,291,27,32,29,223,17,6*50
1743734685.7026987 - $GPGSV,1,1,01,08,08,322,,0*57
1743734685.7030087 - $GLGSV,2,1,07,65,29,249,33,71,30,036,18,72,68,331,33,73,06,071,20,1*7E
1743734685.7032702 - $GLGSV,2,2,07,80,02,022,12,86,41,159,36,88,25,328,20,1*49
1743734685.7035904 - $GLGSV,2,1,06,65,29,249,19,71,30,036,16,72,68,331,35,73,06,071,20,3*7D
1743734685.703788 - $GLGSV,2,2,06,86,41,159,19,88,25,328,25,3*7B
1743734685.703922 - $GLGSV,1,1,01,87,83,254,,0*4F
1743734685.7042296 - $GAGSV,1,1,04,07,42,047,32,14,32,219,25,26,57,124,30,33,67,325,37,2*7B
1743734685.7045379 - $GAGSV,2,1,07,07,42,047,37,13,07,131,10,14,32,219,30,19,31,215,20,7*75
1743734685.7047904 - $GAGSV,2,2,07,26,57,124,35,29,78,184,19,33,67,325,37,7*43
1743734685.7049239 - $GAGSV,1,1,01,12,13,314,,0*42
1743734685.7052317 - $GBGSV,2,1,06,11,33,313,28,12,66,233,21,21,65,284,27,22,49,042,40,1*7E
1743734685.7054296 - $GBGSV,2,2,06,34,52,288,36,35,10,161,32,1*77
1743734685.7056272 - $GBGSV,1,1,02,11,33,313,33,12,66,233,33,B*07
1743734685.705915 - $GBGSV,2,1,06,19,01,060,,36,10,084,,43,11,321,,45,06,129,,0*7F
1743734685.706097 - $GBGSV,2,2,06,46,00,037,,50,44,261,,0*77
1743734685.706185 - $GQGSV,1,1,00,0*64
1743734685.7064114 - $GNGLL,3741.28016,N,09720.38753,W,024445.00,A,D*69
1743734686.6963637 - $GNRMC,024446.00,A,3741.28016,N,09720.38753,W,0.024,,040425,,,D,V*08
1743734686.6965506 - $GNVTG,,T,,M,0.024,N,0.044,K,D*3E
1743734686.6969001 - $GNGGA,024446.00,3741.28016,N,09720.38753,W,2,12,0.66,433.7,M,-26.4,M,,0131*77
1743734686.6971667 - $GNGSA,A,3,15,27,44,10,46,23,18,32,24,,,,1.50,0.66,1.34,1*0E
1743734686.69739 - $GNGSA,A,3,86,65,72,88,,,,,,,,,1.50,0.66,1.34,2*08
1743734686.6976054 - $GNGSA,A,3,33,26,07,,,,,,,,,,1.50,0.66,1.34,3*02
1743734686.697837 - $GNGSA,A,3,34,12,21,11,22,,,,,,,,1.50,0.66,1.34,4*01
1743734686.69804 - $GNGSA,A,3,,,,,,,,,,,,,1.50,0.66,1.34,5*07
1743734686.6983483 - $GPGSV,3,1,10,10,44,296,36,15,32,049,26,18,64,133,21,23,65,014,42,1*6A
1743734686.698657 - $GPGSV,3,2,10,24,39,098,36,27,29,291,29,29,02,175,25,32,29,223,33,1*67
1743734686.698855 - $GPGSV,3,3,10,44,42,210,37,46,35,225,37,1*61
1743734686.699163 - $GPGSV,2,1,07,10,44,296,35,15,32,049,24,18,64,133,24,23,65,014,44,6*68
1743734686.6994154 - $GPGSV,2,2,07,24,39,098,24,27,29,291,26,32,29,223,17,6*50
1743734686.6995502 - $GPGSV,1,1,01,08,08,322,,0*57
1743734686.6998622 - $GLGSV,2,1,07,65,29,249,33,71,30,036,17,72,68,331,33,73,06,071,22,1*73
1743734686.700115 - $GLGSV,2,2,07,80,02,022,12,86,41,159,36,88,25,328,20,1*49
1743734686.7004228 - $GLGSV,2,1,06,65,29,249,20,71,30,036,16,72,68,331,35,73,06,071,20,3*77
1743734686.7006211 - $GLGSV,2,2,06,86,41,159,18,88,25,328,25,3*7A
1743734686.700861 - $GLGSV,1,1,01,87,83,254,,0*4F
1743734686.7011917 - $GAGSV,1,1,04,07,42,047,32,14,32,219,25,26,57,124,30,33,67,325,37,2*7B
1743734686.7015107 - $GAGSV,2,1,07,07,42,047,37,13,07,131,11,14,32,219,30,19,31,215,19,7*7E
1743734686.701774 - $GAGSV,2,2,07,26,57,124,35,29,78,184,19,33,67,325,37,7*43
1743734686.7019722 - $GAGSV,1,1,01,12,13,314,,0*42
1743734686.702291 - $GBGSV,2,1,06,11,33,313,28,12,66,233,22,21,65,284,27,22,49,042,40,1*7D
1743734686.7024949 - $GBGSV,2,2,06,34,52,288,36,35,10,161,32,1*77
1743734686.702699 - $GBGSV,1,1,02,11,33,313,33,12,66,233,33,B*07
1743734686.702977 - $GBGSV,2,1,06,19,01,060,,36,10,084,,43,11,321,,45,06,129,,0*7F
1743734686.7031593 - $GBGSV,2,2,06,46,00,037,,50,44,261,,0*77
1743734686.7032487 - $GQGSV,1,1,00,0*64
1743734686.7034755 - $GNGLL,3741.28016,N,09720.38753,W,024446.00,A,D*6A
1743734687.694278 - $GNRMC,024447.00,A,3741.28014,N,09720.38752,W,0.009,,040425,,,D,V*05
1743734687.6944706 - $GNVTG,,T,,M,0.009,N,0.017,K,D*37
1743734687.6948767 - $GNGGA,024447.00,3741.28014,N,09720.38752,W,2,12,0.66,433.7,M,-26.4,M,,0131*75
1743734687.6952174 - $GNGSA,A,3,15,27,44,10,46,23,18,32,24,,,,1.50,0.66,1.35,1*0F
1743734687.6955621 - $GNGSA,A,3,86,65,72,88,,,,,,,,,1.50,0.66,1.35,2*09
1743734687.6958327 - $GNGSA,A,3,33,26,07,,,,,,,,,,1.50,0.66,1.35,3*03
1743734687.6960876 - $GNGSA,A,3,34,12,21,11,22,,,,,,,,1.50,0.66,1.35,4*00
1743734687.6962812 - $GNGSA,A,3,,,,,,,,,,,,,1.50,0.66,1.35,5*06
1743734687.69662 - $GPGSV,3,1,10,10,44,296,36,15,32,049,26,18,64,133,22,23,65,014,43,1*68
1743734687.6969461 - $GPGSV,3,2,10,24,39,098,36,27,29,291,29,29,02,175,25,32,29,223,33,1*67
1743734687.6971486 - $GPGSV,3,3,10,44,42,210,37,46,35,225,37,1*61
1743734687.6974597 - $GPGSV,2,1,07,10,44,296,35,15,32,049,23,18,64,133,23,23,65,014,44,6*68
1743734687.6977155 - $GPGSV,2,2,07,24,39,098,24,27,29,291,26,32,29,223,17,6*50
1743734687.6978507 - $GPGSV,1,1,01,08,08,321,,0*54
1743734687.6981921 - $GLGSV,2,1,07,65,29,249,34,71,30,036,17,72,68,331,33,73,06,071,24,1*72
1743734687.6984482 - $GLGSV,2,2,07,80,02,022,15,86,41,159,37,88,25,328,20,1*4F
1743734687.698756 - $GLGSV,2,1,06,65,29,249,20,71,30,036,16,72,68,331,35,73,06,071,20,3*77
1743734687.6989539 - $GLGSV,2,2,06,86,41,159,19,88,25,328,25,3*7B
1743734687.699088 - $GLGSV,1,1,01,87,83,254,,0*4F
1743734687.6993964 - $GAGSV,1,1,04,07,42,047,32,14,32,219,26,26,57,124,30,33,67,325,37,2*78
1743734687.6997054 - $GAGSV,2,1,07,07,42,047,37,13,07,131,11,14,32,219,30,19,31,215,19,7*7E
1743734687.6999586 - $GAGSV,2,2,07,26,57,124,36,29,78,184,19,33,67,325,37,7*40
1743734687.7000923 - $GAGSV,1,1,01,12,13,314,,0*42
1743734687.7003999 - $GBGSV,2,1,06,11,33,313,28,12,66,233,22,21,65,284,27,22,49,042,40,1*7D
1743734687.700597 - $GBGSV,2,2,06,34,52,288,36,35,10,161,32,1*77
1743734687.7007945 - $GBGSV,1,1,02,11,33,313,32,12,66,233,33,B*06
1743734687.7010777 - $GBGSV,2,1,06,19,01,060,,36,10,084,,43,11,321,,45,06,129,,0*7F
1743734687.7012599 - $GBGSV,2,2,06,46,00,037,,50,44,261,,0*77
1743734687.7013483 - $GQGSV,1,1,00,0*64
1743734687.7015722 - $GNGLL,3741.28014,N,09720.38752,W,024447.00,A,D*68
1743734688.6959672 - $GNRMC,024448.00,A,3741.28012,N,09720.38751,W,0.028,,040425,,,D,V*0C
1743734688.6961539 - $GNVTG,,T,,M,0.028,N,0.051,K,D*36
1743734688.6965024 - $GNGGA,024448.00,3741.28012,N,09720.38751,W,2,12,0.66,433.7,M,-26.4,M,,0131*7F
1743734688.696775 - $GNGSA,A,3,15,27,44,10,46,23,18,32,24,,,,1.50,0.66,1.35,1*0F
1743734688.6970081 - $GNGSA,A,3,86,65,72,88,,,,,,,,,1.50,0.66,1.35,2*09
1743734688.6972368 - $GNGSA,A,3,33,26,07,,,,,,,,,,1.50,0.66,1.35,3*03
1743734688.697477 - $GNGSA,A,3,34,12,21,11,22,,,,,,,,1.50,0.66,1.35,4*00
1743734688.6976984 - $GNGSA,A,3,,,,,,,,,,,,,1.50,0.66,1.35,5*06
1743734688.6980705 - $GPGSV,3,1,10,10,44,296,36,15,32,049,26,18,64,133,22,23,65,014,43,1*68
1743734688.6983955 - $GPGSV,3,2,10,24,39,098,36,27,29,291,29,29,02,175,25,32,29,223,33,1*67
1743734688.6985993 - $GPGSV,3,3,10,44,42,210,37,46,35,225,38,1*6E
1743734688.6989155 - $GPGSV,2,1,07,10,44,296,35,15,32,049,23,18,64,133,24,23,65,014,44,6*6F
1743734688.6991775 - $GPGSV,2,2,07,24,39,098,25,27,29,291,26,32,29,223,18,6*5E
1743734688.6993184 - $GPGSV,1,1,01,08,08,321,,0*54
1743734688.699641 - $GLGSV,2,1,07,65,29,249,34,71,30,036,18,72,68,331,33,73,06,071,24,1*7D
1743734688.6999154 - $GLGSV,2,2,07,80,02,022,15,86,41,159,37,88,25,328,19,1*45
1743734688.7002401 - $GLGSV,2,1,06,65,29,249,20,71,30,036,16,72,68,331,35,73,06,071,20,3*77
1743734688.7004492 - $GLGSV,2,2,06,86,41,159,19,88,25,328,24,3*7A
1743734688.7005863 - $GLGSV,1,1,01,87,83,254,,0*4F
1743734688.7008953 - $GAGSV,1,1,04,07,42,047,32,14,32,219,26,26,57,124,30,33,67,325,37,2*78
1743734688.7012033 - $GAGSV,2,1,07,07,42,047,37,13,07,131,11,14,32,219,30,19,31,215,18,7*7F
1743734688.7014565 - $GAGSV,2,2,07,26,57,124,35,29,78,184,19,33,67,325,37,7*43
1743734688.7015967 - $GAGSV,1,1,01,12,13,314,,0*42
1743734688.7019243 - $GBGSV,2,1,06,11,33,313,28,12,66,233,22,21,65,284,27,22,49,042,40,1*7D
1743734688.702124 - $GBGSV,2,2,06,34,52,288,36,35,10,161,32,1*77
1743734688.7023225 - $GBGSV,1,1,02,11,33,313,32,12,66,233,33,B*06
1743734688.7025976 - $GBGSV,2,1,06,19,01,060,,36,10,084,,43,11,321,,45,06,129,,0*7F
1743734688.7027826 - $GBGSV,2,2,06,46,00,037,,50,44,261,,0*77
1743734688.7028708 - $GQGSV,1,1,00,0*64
1743734688.703096 - $GNGLL,3741.28012,N,09720.38751,W,024448.00,A,D*62
1743734689.6893425 - $GNRMC,024449.00,A,3741.28011,N,09720.38749,W,0.032,,040425,,,D,V*0C
1743734689.6895063 - $GNVTG,,T,,M,0.032,N,0.059,K,D*35
1743734689.6898496 - $GNGGA,024449.00,3741.28011,N,09720.38749,W,2,12,0.66,433.6,M,-26.4,M,,0131*75
1743734689.690129 - $GNGSA,A,3,15,27,44,10,46,23,18,32,24,,,,1.50,0.66,1.35,1*0F
1743734689.6903558 - $GNGSA,A,3,86,65,72,88,,,,,,,,,1.50,0.66,1.35,2*09
1743734689.6905704 - $GNGSA,A,3,33,26,07,,,,,,,,,,1.50,0.66,1.35,3*03
1743734689.6908014 - $GNGSA,A,3,34,12,21,11,22,,,,,,,,1.50,0.66,1.35,4*00
1743734689.6909904 - $GNGSA,A,3,,,,,,,,,,,,,1.50,0.66,1.35,5*06
1743734689.6912978 - $GPGSV,3,1,10,10,45,298,36,15,32,049,26,18,64,133,23,23,65,014,43,1*66
1743734689.6916056 - $GPGSV,3,2,10,24,39,098,36,27,29,291,29,29,02,175,25,32,29,223,33,1*67
1743734689.691803 - $GPGSV,3,3,10,44,42,210,37,46,35,225,38,1*6E
1743734689.69211 - $GPGSV,2,1,07,10,45,298,35,15,32,049,23,18,64,133,25,23,65,014,44,6*61
1743734689.6923642 - $GPGSV,2,2,07,24,39,098,24,27,29,291,26,32,29,223,18,6*5F
1743734689.692499 - $GPGSV,1,1,01,08,08,321,,0*54
1743734689.6928067 - $GLGSV,2,1,07,65,29,249,34,71,30,036,18,72,68,331,33,73,06,071,25,1*7C
1743734689.6930594 - $GLGSV,2,2,07,80,02,022,16,86,41,159,37,88,25,328,19,1*46
1743734689.6933663 - $GLGSV,2,1,06,65,29,249,20,71,30,036,16,72,68,331,35,73,06,071,19,3*7D
1743734689.693564 - $GLGSV,2,2,06,86,41,159,19,88,25,328,24,3*7A
1743734689.6936977 - $GLGSV,1,1,01,87,83,254,,0*4F
1743734689.694009 - $GAGSV,1,1,04,07,42,047,32,14,32,219,25,26,57,124,29,33,67,325,37,2*73
1743734689.6943169 - $GAGSV,2,1,07,07,42,047,37,13,07,131,10,14,32,219,30,19,31,215,18,7*7E
1743734689.694569 - $GAGSV,2,2,07,26,57,124,36,29,78,184,19,33,67,325,36,7*41
1743734689.694703 - $GAGSV,1,1,01,12,13,314,,0*42
1743734689.6950102 - $GBGSV,2,1,06,11,33,313,28,12,66,233,22,21,65,284,28,22,49,042,40,1*72
1743734689.6952076 - $GBGSV,2,2,06,34,52,288,36,35,10,161,32,1*77
1743734689.6954055 - $GBGSV,1,1,02,11,33,313,32,12,66,233,33,B*06
1743734689.6956801 - $GBGSV,2,1,06,19,01,060,,36,10,084,,43,11,321,,45,06,129,,0*7F
1743734689.6958618 - $GBGSV,2,2,06,46,00,037,,50,44,261,,0*77
1743734689.69595 - $GQGSV,1,1,00,0*64
1743734689.6961741 - $GNGLL,3741.28011,N,09720.38749,W,024449.00,A,D*69
1743734690.6951985 - $GNRMC,024450.00,A,3741.28011,N,09720.38750,W,0.023,,040425,,,D,V*0C
1743734690.6953862 - $GNVTG,,T,,M,0.023,N,0.042,K,D*3F
1743734690.6957438 - $GNGGA,024450.00,3741.28011,N,09720.38750,W,2,12,0.66,433.5,M,-26.4,M,,0131*76
1743734690.696023 - $GNGSA,A,3,15,27,44,10,46,23,18,32,24,,,,1.50,0.66,1.35,1*0F
1743734690.6962512 - $GNGSA,A,3,86,65,72,88,,,,,,,,,1.50,0.66,1.35,2*09
1743734690.6964707 - $GNGSA,A,3,33,26,07,,,,,,,,,,1.50,0.66,1.35,3*03
1743734690.6967123 - $GNGSA,A,3,34,12,21,11,22,,,,,,,,1.50,0.66,1.35,4*00
1743734690.6969905 - $GNGSA,A,3,,,,,,,,,,,,,1.50,0.66,1.35,5*06
1743734690.6973126 - $GPGSV,3,1,10,10,45,298,37,15,32,049,26,18,64,133,23,23,65,014,43,1*67
1743734690.6976275 - $GPGSV,3,2,10,24,39,098,36,27,29,291,29,29,02,175,25,32,29,223,33,1*67
1743734690.6978304 - $GPGSV,3,3,10,44,42,210,37,46,35,225,37,1*61
1743734690.6981826 - $GPGSV,2,1,07,10,45,298,35,15,32,049,23,18,64,133,25,23,65,014,44,6*61
1743734690.6984398 - $GPGSV,2,2,07,24,39,098,24,27,29,291,26,32,29,223,18,6*5F
1743734690.6985745 - $GPGSV,1,1,01,08,08,321,,0*54
1743734690.6988838 - $GLGSV,2,1,07,65,29,249,34,71,30,036,19,72,68,331,33,73,06,071,26,1*7E
1743734690.6991377 - $GLGSV,2,2,07,80,02,022,15,86,41,159,37,88,25,328,19,1*45
1743734690.6994467 - $GLGSV,2,1,06,65,29,249,20,71,30,036,15,72,68,331,35,73,06,071,19,3*7E
1743734690.6996458 - $GLGSV,2,2,06,86,41,159,19,88,25,328,24,3*7A
1743734690.6997797 - $GLGSV,1,1,01,87,83,254,,0*4F
1743734690.7000947 - $GAGSV,1,1,04,07,42,047,33,14,32,219,25,26,57,124,30,33,67,325,37,2*7A
1743734690.7004094 - $GAGSV,2,1,07,07,42,047,37,13,07,131,08,14,32,219,31,19,31,215,18,7*76
1743734690.7006786 - $GAGSV,2,2,07,26,57,124,36,29,78,184,18,33,67,325,36,7*40
1743734690.7008162 - $GAGSV,1,1,01,12,13,314,,0*42
1743734690.701127 - $GBGSV,2,1,06,11,33,313,28,12,66,233,22,21,65,284,27,22,49,042,40,1*7D
1743734690.7013304 - $GBGSV,2,2,06,34,52,288,36,35,10,161,32,1*77
1743734690.701531 - $GBGSV,1,1,02,11,33,313,33,12,66,233,33,B*07
1743734690.7018087 - $GBGSV,2,1,06,19,01,060,,36,10,084,,43,11,321,,45,06,129,,0*7F
1743734690.7020075 - $GBGSV,2,2,06,46,00,037,,50,44,261,,0*77
1743734690.7021003 - $GQGSV,1,1,00,0*64
1743734690.7023268 - $GNGLL,3741.28011,N,09720.38750,W,024450.00,A,D*69
1743734691.6996815 - $GNRMC,024451.00,A,3741.28012,N,09720.38750,W,0.036,,040425,,,D,V*0A
1743734691.6998534 - $GNVTG,,T,,M,0.036,N,0.066,K,D*3D
1743734691.7001958 - $GNGGA,024451.00,3741.28012,N,09720.38750,W,2,12,0.66,433.4,M,-26.4,M,,0131*75
1743734691.700462 - $GNGSA,A,3,15,27,44,10,46,23,18,32,24,,,,1.50,0.66,1.35,1*0F
1743734691.700691 - $GNGSA,A,3,86,65,72,88,,,,,,,,,1.50,0.66,1.35,2*09
1743734691.700907 - $GNGSA,A,3,33,26,07,,,,,,,,,,1.50,0.66,1.35,3*03
1743734691.7011387 - $GNGSA,A,3,34,12,21,11,22,,,,,,,,1.50,0.66,1.35,4*00
1743734691.701328 - $GNGSA,A,3,,,,,,,,,,,,,1.50,0.66,1.35,5*06
1743734691.7016366 - $GPGSV,3,1,10,10,45,298,37,15,32,049,26,18,64,133,23,23,65,014,43,1*67
1743734691.7019598 - $GPGSV,3,2,10,24,39,098,36,27,29,291,29,29,02,175,25,32,29,223,33,1*67
1743734691.7021585 - $GPGSV,3,3,10,44,42,210,38,46,35,225,38,1*61
1743734691.7024667 - $GPGSV,2,1,07,10,45,298,35,15,32,049,23,18,64,133,25,23,65,014,44,6*61
1743734691.7027197 - $GPGSV,2,2,07,24,39,098,24,27,29,291,27,32,29,223,17,6*51
1743734691.7028568 - $GPGSV,1,1,01,08,08,321,,0*54
1743734691.7031658 - $GLGSV,2,1,07,65,29,249,34,71,30,036,18,72,68,331,33,73,06,071,26,1*7F
1743734691.703419 - $GLGSV,2,2,07,80,02,022,16,86,41,159,37,88,25,328,18,1*47
1743734691.7037265 - $GLGSV,2,1,06,65,29,249,20,71,30,036,15,72,68,331,36,73,06,071,19,3*7D
1743734691.7039251 - $GLGSV,2,2,06,86,41,159,21,88,25,328,24,3*71
1743734691.704061 - $GLGSV,1,1,01,87,83,254,,0*4F
1743734691.7043688 - $GAGSV,1,1,04,07,42,047,33,14,32,219,26,26,57,124,30,33,67,325,37,2*79
1743734691.7046773 - $GAGSV,2,1,07,07,42,047,37,13,07,131,08,14,32,219,31,19,31,215,18,7*76
1743734691.7049305 - $GAGSV,2,2,07,26,57,124,36,29,78,184,18,33,67,325,36,7*40
1743734691.7050645 - $GAGSV,1,1,01,12,13,314,,0*42
1743734691.705372 - $GBGSV,2,1,06,11,33,313,28,12,66,233,23,21,65,284,27,22,49,042,40,1*7C
1743734691.7055721 - $GBGSV,2,2,06,34,52,288,36,35,10,161,32,1*77
1743734691.705825 - $GBGSV,1,1,03,11,33,313,33,12,66,233,33,34,52,288,18,B*3D
1743734691.7061043 - $GBGSV,2,1,06,19,01,060,,36,10,084,,43,11,321,,45,06,129,,0*7F
1743734691.7062862 - $GBGSV,2,2,06,46,00,037,,50,44,261,,0*77
1743734691.7063744 - $GQGSV,1,1,00,0*64
1743734691.7065992 - $GNGLL,3741.28012,N,09720.38750,W,024451.00,A,D*6B
